{
    "AL": [
        {
            "name": "Autauga",
            "fips": 1001,
            "longitude": -86.68801,
            "latitude": 32.439967,
            "timezone": "-6"
        },
        {
            "name": "Baldwin",
            "fips": 1003,
            "longitude": -87.76099,
            "latitude": 31.242801,
            "timezone": "-6"
        },
        {
            "name": "Barbour",
            "fips": 1005,
            "longitude": -85.55787,
            "latitude": 31.692576,
            "timezone": "-6"
        },
        {
            "name": "Bibb",
            "fips": 1007,
            "longitude": -86.95117,
            "latitude": 33.041166,
            "timezone": "-6"
        },
        {
            "name": "Blount",
            "fips": 1009,
            "longitude": -86.5338,
            "latitude": 34.111425,
            "timezone": "-6"
        },
        {
            "name": "Bullock",
            "fips": 1011,
            "longitude": -85.47282,
            "latitude": 32.577135,
            "timezone": "-6"
        },
        {
            "name": "Butler",
            "fips": 1013,
            "longitude": -86.60591,
            "latitude": 31.8007,
            "timezone": "-6"
        },
        {
            "name": "Calhoun",
            "fips": 1015,
            "longitude": -85.83166,
            "latitude": 33.719701,
            "timezone": "-6"
        },
        {
            "name": "Chambers",
            "fips": 1017,
            "longitude": -85.28076,
            "latitude": 32.745844,
            "timezone": "-6"
        },
        {
            "name": "Cherokee",
            "fips": 1019,
            "longitude": -85.55172,
            "latitude": 34.333048,
            "timezone": "-6"
        },
        {
            "name": "Chilton",
            "fips": 1021,
            "longitude": -86.7143,
            "latitude": 32.65279,
            "timezone": "-6"
        },
        {
            "name": "Choctaw",
            "fips": 1023,
            "longitude": -88.28508,
            "latitude": 31.891177,
            "timezone": "-6"
        },
        {
            "name": "Clarke",
            "fips": 1025,
            "longitude": -87.645,
            "latitude": 31.756797,
            "timezone": "-6"
        },
        {
            "name": "Clay",
            "fips": 1027,
            "longitude": -85.84503,
            "latitude": 33.243964,
            "timezone": "-6"
        },
        {
            "name": "Cleburne",
            "fips": 1029,
            "longitude": -85.36312,
            "latitude": 33.535491,
            "timezone": "-6"
        },
        {
            "name": "Coffee",
            "fips": 1031,
            "longitude": -85.72111,
            "latitude": 31.284499,
            "timezone": "-6"
        },
        {
            "name": "Colbert",
            "fips": 1033,
            "longitude": -87.9986,
            "latitude": 34.748498,
            "timezone": "-6"
        },
        {
            "name": "Conecuh",
            "fips": 1035,
            "longitude": -87.24886,
            "latitude": 31.612646,
            "timezone": "-6"
        },
        {
            "name": "Coosa",
            "fips": 1037,
            "longitude": -86.33414,
            "latitude": 33.137515,
            "timezone": "-6"
        },
        {
            "name": "Covington",
            "fips": 1039,
            "longitude": -86.48699,
            "latitude": 31.279043,
            "timezone": "-6"
        },
        {
            "name": "Crenshaw",
            "fips": 1041,
            "longitude": -86.60591,
            "latitude": 31.8007,
            "timezone": "-6"
        },
        {
            "name": "Cullman",
            "fips": 1043,
            "longitude": -86.92449,
            "latitude": 34.139198,
            "timezone": "-6"
        },
        {
            "name": "Dale",
            "fips": 1045,
            "longitude": -85.72111,
            "latitude": 31.284499,
            "timezone": "-6"
        },
        {
            "name": "Dallas",
            "fips": 1047,
            "longitude": -86.95524,
            "latitude": 32.080532,
            "timezone": "-6"
        },
        {
            "name": "DeKalb",
            "fips": 1049,
            "longitude": -86.036,
            "latitude": 34.297717,
            "timezone": "-6"
        },
        {
            "name": "Elmore",
            "fips": 1051,
            "longitude": -85.92669,
            "latitude": 32.903432,
            "timezone": "-6"
        },
        {
            "name": "Escambia",
            "fips": 1053,
            "longitude": -86.48699,
            "latitude": 31.279043,
            "timezone": "-6"
        },
        {
            "name": "Etowah",
            "fips": 1055,
            "longitude": -85.803434,
            "latitude": 33.984062,
            "timezone": "-6"
        },
        {
            "name": "Fayette",
            "fips": 1057,
            "longitude": -87.97695,
            "latitude": 33.586897,
            "timezone": "-6"
        },
        {
            "name": "Franklin",
            "fips": 1059,
            "longitude": -87.9986,
            "latitude": 34.748498,
            "timezone": "-6"
        },
        {
            "name": "Geneva",
            "fips": 1061,
            "longitude": -85.7001,
            "latitude": 31.096994,
            "timezone": "-6"
        },
        {
            "name": "Greene",
            "fips": 1063,
            "longitude": -87.93837,
            "latitude": 32.931143,
            "timezone": "-6"
        },
        {
            "name": "Hale",
            "fips": 1065,
            "longitude": -87.73326,
            "latitude": 32.871514,
            "timezone": "-6"
        },
        {
            "name": "Henry",
            "fips": 1067,
            "longitude": -85.40605,
            "latitude": 31.249042,
            "timezone": "-6"
        },
        {
            "name": "Houston",
            "fips": 1069,
            "longitude": -85.47402,
            "latitude": 31.214832,
            "timezone": "-6"
        },
        {
            "name": "Jackson",
            "fips": 1071,
            "longitude": -85.84528,
            "latitude": 34.877531,
            "timezone": "-6"
        },
        {
            "name": "Jefferson",
            "fips": 1073,
            "longitude": -86.74896,
            "latitude": 33.542004,
            "timezone": "-6"
        },
        {
            "name": "Lamar",
            "fips": 1075,
            "longitude": -88.13117,
            "latitude": 33.864591,
            "timezone": "-6"
        },
        {
            "name": "Lauderdale",
            "fips": 1077,
            "longitude": -88.02603,
            "latitude": 34.950648,
            "timezone": "-6"
        },
        {
            "name": "Lawrence",
            "fips": 1079,
            "longitude": -87.27802,
            "latitude": 34.496476,
            "timezone": "-6"
        },
        {
            "name": "Lee",
            "fips": 1081,
            "longitude": -85.349003,
            "latitude": 32.578185,
            "timezone": "-6"
        },
        {
            "name": "Limestone",
            "fips": 1083,
            "longitude": -87.02767,
            "latitude": 34.784028,
            "timezone": "-6"
        },
        {
            "name": "Lowndes",
            "fips": 1085,
            "longitude": -86.49437,
            "latitude": 32.070433,
            "timezone": "-6"
        },
        {
            "name": "Macon",
            "fips": 1087,
            "longitude": -85.47282,
            "latitude": 32.577135,
            "timezone": "-6"
        },
        {
            "name": "Madison",
            "fips": 1089,
            "longitude": -86.68317,
            "latitude": 34.748066,
            "timezone": "-6"
        },
        {
            "name": "Marengo",
            "fips": 1091,
            "longitude": -87.898611,
            "latitude": 32.414036,
            "timezone": "-6"
        },
        {
            "name": "Marion",
            "fips": 1093,
            "longitude": -87.6118,
            "latitude": 34.225425,
            "timezone": "-6"
        },
        {
            "name": "Marshall",
            "fips": 1095,
            "longitude": -86.49278,
            "latitude": 34.323715,
            "timezone": "-6"
        },
        {
            "name": "Mobile",
            "fips": 1097,
            "longitude": -88.173652,
            "latitude": 30.696589,
            "timezone": "-6"
        },
        {
            "name": "Monroe",
            "fips": 1099,
            "longitude": -86.76737,
            "latitude": 31.655458,
            "timezone": "-6"
        },
        {
            "name": "Montgomery",
            "fips": 1101,
            "longitude": -86.30504,
            "latitude": 32.30234,
            "timezone": "-6"
        },
        {
            "name": "Morgan",
            "fips": 1103,
            "longitude": -86.98786,
            "latitude": 34.595332,
            "timezone": "-6"
        },
        {
            "name": "Perry",
            "fips": 1105,
            "longitude": -87.39972,
            "latitude": 32.291429,
            "timezone": "-6"
        },
        {
            "name": "Pickens",
            "fips": 1107,
            "longitude": -87.88368,
            "latitude": 33.299935,
            "timezone": "-6"
        },
        {
            "name": "Pike",
            "fips": 1109,
            "longitude": -85.75558,
            "latitude": 31.859531,
            "timezone": "-6"
        },
        {
            "name": "Randolph",
            "fips": 1111,
            "longitude": -85.55457,
            "latitude": 33.613541,
            "timezone": "-6"
        },
        {
            "name": "Russell",
            "fips": 1113,
            "longitude": -85.33465,
            "latitude": 32.556296,
            "timezone": "-6"
        },
        {
            "name": "St. Clair",
            "fips": 1115,
            "longitude": -86.31547,
            "latitude": 33.506012,
            "timezone": "-6"
        },
        {
            "name": "Shelby",
            "fips": 1117,
            "longitude": -86.78726,
            "latitude": 33.317471,
            "timezone": "-6"
        },
        {
            "name": "Sumter",
            "fips": 1119,
            "longitude": -88.18653,
            "latitude": 33.095505,
            "timezone": "-6"
        },
        {
            "name": "Talladega",
            "fips": 1121,
            "longitude": -85.94756,
            "latitude": 33.51179,
            "timezone": "-6"
        },
        {
            "name": "Tallapoosa",
            "fips": 1123,
            "longitude": -86.06098,
            "latitude": 32.941708,
            "timezone": "-6"
        },
        {
            "name": "Tuscaloosa",
            "fips": 1125,
            "longitude": -87.77187,
            "latitude": 33.301003,
            "timezone": "-6"
        },
        {
            "name": "Walker",
            "fips": 1127,
            "longitude": -87.23957,
            "latitude": 33.451714,
            "timezone": "-6"
        },
        {
            "name": "Washington",
            "fips": 1129,
            "longitude": -88.26036,
            "latitude": 31.309194,
            "timezone": "-6"
        },
        {
            "name": "Wilcox",
            "fips": 1131,
            "longitude": -87.4311,
            "latitude": 31.874887,
            "timezone": "-6"
        },
        {
            "name": "Winston",
            "fips": 1133,
            "longitude": -87.29957,
            "latitude": 33.907546,
            "timezone": "-6"
        }
    ],
    "AK": [
        {
            "name": "Aleutians East Borough",
            "fips": 2013,
            "longitude": -165.88176,
            "latitude": 54.098693,
            "timezone": "-9"
        },
        {
            "name": "Aleutians West Census Area",
            "fips": 2016,
            "longitude": -166.52287,
            "latitude": 53.872017,
            "timezone": "-10"
        },
        {
            "name": "Anchorage Municipality",
            "fips": 2020,
            "longitude": -149.93438,
            "latitude": 61.188276,
            "timezone": "-9"
        },
        {
            "name": "Bethel Census Area",
            "fips": 2050,
            "longitude": -165.25645,
            "latitude": 60.582127,
            "timezone": "-9"
        },
        {
            "name": "Bristol Bay Borough",
            "fips": 2060,
            "longitude": -156.64007,
            "latitude": 58.687446,
            "timezone": "-9"
        },
        {
            "name": "Denali Borough",
            "fips": 2068,
            "longitude": -148.39873,
            "latitude": 63.255516,
            "timezone": "-9"
        },
        {
            "name": "Dillingham Census Area",
            "fips": 2070,
            "longitude": -159.0558,
            "latitude": 58.981087,
            "timezone": "-9"
        },
        {
            "name": "Fairbanks North Star Borough",
            "fips": 2090,
            "longitude": -147.405134,
            "latitude": 64.699839,
            "timezone": "-9"
        },
        {
            "name": "Haines Borough",
            "fips": 2100,
            "longitude": -135.6122,
            "latitude": 59.279037,
            "timezone": "-9"
        },
        {
            "name": "Hoonah-Angoon Census Area",
            "fips": 2105,
            "longitude": -134.57222,
            "latitude": 57.48765,
            "timezone": "-9"
        },
        {
            "name": "Juneau City and Borough",
            "fips": 2110,
            "longitude": -134.197786,
            "latitude": 58.38348,
            "timezone": "-9"
        },
        {
            "name": "Kenai Peninsula Borough",
            "fips": 2122,
            "longitude": -151.23355,
            "latitude": 60.587598,
            "timezone": "-9"
        },
        {
            "name": "Ketchikan Gateway Borough",
            "fips": 2130,
            "longitude": -131.67537,
            "latitude": 55.395359,
            "timezone": "-9"
        },
        {
            "name": "Kodiak Island Borough",
            "fips": 2150,
            "longitude": -152.46085,
            "latitude": 57.929664,
            "timezone": "-9"
        },
        {
            "name": "Lake and Peninsula Borough",
            "fips": 2164,
            "longitude": -157.34841,
            "latitude": 58.217621,
            "timezone": "-9"
        },
        {
            "name": "Matanuska-Susitna Borough",
            "fips": 2170,
            "longitude": -148.69632,
            "latitude": 61.751348,
            "timezone": "-9"
        },
        {
            "name": "Nome Census Area",
            "fips": 2180,
            "longitude": -163.44257,
            "latitude": 64.684323,
            "timezone": "-9"
        },
        {
            "name": "North Slope Borough",
            "fips": 2185,
            "longitude": -153.993988,
            "latitude": 66.693255,
            "timezone": "-9"
        },
        {
            "name": "Northwest Arctic Borough",
            "fips": 2188,
            "longitude": -162.97508,
            "latitude": 67.572031,
            "timezone": "-9"
        },
        {
            "name": "Petersburg Census Area",
            "fips": 2195,
            "longitude": -132.97354,
            "latitude": 56.784206,
            "timezone": "-9"
        },
        {
            "name": "Prince of Wales-Hyder Census Area",
            "fips": 2198,
            "longitude": -133.60689,
            "latitude": 56.337957,
            "timezone": "-9"
        },
        {
            "name": "Sitka City and Borough",
            "fips": 2220,
            "longitude": -135.3227,
            "latitude": 57.064376,
            "timezone": "-9"
        },
        {
            "name": "Skagway Municipality",
            "fips": 2230,
            "longitude": -135.31355,
            "latitude": 59.465159,
            "timezone": "-9"
        },
        {
            "name": "Southeast Fairbanks Census Area",
            "fips": 2240,
            "longitude": -141.82852,
            "latitude": 62.980725,
            "timezone": "-9"
        },
        {
            "name": "Valdez-Cordova Census Area",
            "fips": 2261,
            "longitude": -145.58592,
            "latitude": 62.12042,
            "timezone": "-9"
        },
        {
            "name": "Wade Hampton Census Area",
            "fips": 2270,
            "longitude": -163.76142,
            "latitude": 62.945434,
            "timezone": "-9"
        },
        {
            "name": "Wrangell City and Borough",
            "fips": 2275,
            "longitude": -132.25002,
            "latitude": 55.742045,
            "timezone": "-9"
        },
        {
            "name": "Yakutat City and Borough",
            "fips": 2282,
            "longitude": -139.71052,
            "latitude": 59.538728,
            "timezone": "-9"
        },
        {
            "name": "Yukon-Koyukuk Census Area",
            "fips": 2290,
            "longitude": -152.30201,
            "latitude": 63.893902,
            "timezone": "-9"
        }
    ],
    "AZ": [
        {
            "name": "Apache",
            "fips": 4001,
            "longitude": -109.11872,
            "latitude": 36.59559,
            "timezone": "-7"
        },
        {
            "name": "Cochise",
            "fips": 4003,
            "longitude": -109.64646,
            "latitude": 31.724946,
            "timezone": "-7"
        },
        {
            "name": "Coconino",
            "fips": 4005,
            "longitude": -112.23657,
            "latitude": 35.378832,
            "timezone": "-7"
        },
        {
            "name": "Gila",
            "fips": 4007,
            "longitude": -111.46865,
            "latitude": 34.394226,
            "timezone": "-7"
        },
        {
            "name": "Graham",
            "fips": 4009,
            "longitude": -109.69052,
            "latitude": 32.800222,
            "timezone": "-7"
        },
        {
            "name": "Greenlee",
            "fips": 4011,
            "longitude": -109.32904,
            "latitude": 33.044523,
            "timezone": "-7"
        },
        {
            "name": "La Paz",
            "fips": 4012,
            "longitude": -113.53441,
            "latitude": 33.843519,
            "timezone": "-7"
        },
        {
            "name": "Maricopa",
            "fips": 4013,
            "longitude": -112.0703,
            "latitude": 33.505251,
            "timezone": "-7"
        },
        {
            "name": "Mohave",
            "fips": 4015,
            "longitude": -114.59734,
            "latitude": 35.097719,
            "timezone": "-7"
        },
        {
            "name": "Navajo",
            "fips": 4017,
            "longitude": -109.91503,
            "latitude": 34.121008,
            "timezone": "-7"
        },
        {
            "name": "Pima",
            "fips": 4019,
            "longitude": -111.09908,
            "latitude": 31.718671,
            "timezone": "-7"
        },
        {
            "name": "Pinal",
            "fips": 4021,
            "longitude": "",
            "latitude": "",
            "timezone": ""
        },
        {
            "name": "Santa Cruz",
            "fips": 4023,
            "longitude": -111.0416,
            "latitude": 31.586392,
            "timezone": "-7"
        },
        {
            "name": "Yavapai",
            "fips": 4025,
            "longitude": -112.13612,
            "latitude": 34.339938,
            "timezone": "-7"
        },
        {
            "name": "Yuma",
            "fips": 4027,
            "longitude": -114.13546,
            "latitude": 32.676125,
            "timezone": "-7"
        }
    ],
    "AR": [
        {
            "name": "Arkansas",
            "fips": 5001,
            "longitude": -91.40953,
            "latitude": 34.403216,
            "timezone": "-6"
        },
        {
            "name": "Ashley",
            "fips": 5003,
            "longitude": -91.26107,
            "latitude": 33.118147,
            "timezone": "-6"
        },
        {
            "name": "Baxter",
            "fips": 5005,
            "longitude": -92.53279,
            "latitude": 36.276949,
            "timezone": "-6"
        },
        {
            "name": "Benton",
            "fips": 5007,
            "longitude": -94.07141,
            "latitude": 36.342235,
            "timezone": "-6"
        },
        {
            "name": "Boone",
            "fips": 5009,
            "longitude": -92.75237,
            "latitude": 36.136628,
            "timezone": "-6"
        },
        {
            "name": "Bradley",
            "fips": 5011,
            "longitude": -92.31954,
            "latitude": 33.346473,
            "timezone": "-6"
        },
        {
            "name": "Calhoun",
            "fips": 5013,
            "longitude": -92.39227,
            "latitude": 33.525889,
            "timezone": "-6"
        },
        {
            "name": "Carroll",
            "fips": 5015,
            "longitude": -93.31302,
            "latitude": 36.272469,
            "timezone": "-6"
        },
        {
            "name": "Chicot",
            "fips": 5017,
            "longitude": -91.26107,
            "latitude": 33.118147,
            "timezone": "-6"
        },
        {
            "name": "Clark",
            "fips": 5019,
            "longitude": -93.189406,
            "latitude": 34.055486,
            "timezone": "-6"
        },
        {
            "name": "Clay",
            "fips": 5021,
            "longitude": -90.73187,
            "latitude": 36.384555,
            "timezone": "-6"
        },
        {
            "name": "Cleburne",
            "fips": 5023,
            "longitude": -92.20204,
            "latitude": 35.402236,
            "timezone": "-6"
        },
        {
            "name": "Cleveland",
            "fips": 5025,
            "longitude": -92.33251,
            "latitude": 33.914079,
            "timezone": "-6"
        },
        {
            "name": "Columbia",
            "fips": 5027,
            "longitude": -93.06263,
            "latitude": 33.4125,
            "timezone": "-6"
        },
        {
            "name": "Conway",
            "fips": 5029,
            "longitude": -92.90795,
            "latitude": 35.261843,
            "timezone": "-6"
        },
        {
            "name": "Craighead",
            "fips": 5031,
            "longitude": -90.5102,
            "latitude": 36.065711,
            "timezone": "-6"
        },
        {
            "name": "Crawford",
            "fips": 5033,
            "longitude": -94.44989,
            "latitude": 35.594579,
            "timezone": "-6"
        },
        {
            "name": "Crittenden",
            "fips": 5035,
            "longitude": -90.46421,
            "latitude": 35.266812,
            "timezone": "-6"
        },
        {
            "name": "Cross",
            "fips": 5037,
            "longitude": -90.46421,
            "latitude": 35.266812,
            "timezone": "-6"
        },
        {
            "name": "Dallas",
            "fips": 5039,
            "longitude": -92.56519,
            "latitude": 34.058224,
            "timezone": "-6"
        },
        {
            "name": "Desha",
            "fips": 5041,
            "longitude": -91.41876,
            "latitude": 33.737729,
            "timezone": "-6"
        },
        {
            "name": "Drew",
            "fips": 5043,
            "longitude": -91.76272,
            "latitude": 33.62086,
            "timezone": "-6"
        },
        {
            "name": "Faulkner",
            "fips": 5045,
            "longitude": -92.21721,
            "latitude": 35.220931,
            "timezone": "-6"
        },
        {
            "name": "Franklin",
            "fips": 5047,
            "longitude": -93.73383,
            "latitude": 35.415616,
            "timezone": "-6"
        },
        {
            "name": "Fulton",
            "fips": 5049,
            "longitude": -92.11109,
            "latitude": 36.427702,
            "timezone": "-6"
        },
        {
            "name": "Garland",
            "fips": 5051,
            "longitude": -93.24096,
            "latitude": 34.424114,
            "timezone": "-6"
        },
        {
            "name": "Grant",
            "fips": 5053,
            "longitude": -92.29743,
            "latitude": 34.52109,
            "timezone": "-6"
        },
        {
            "name": "Greene",
            "fips": 5055,
            "longitude": -90.39082,
            "latitude": 36.179815,
            "timezone": "-6"
        },
        {
            "name": "Hempstead",
            "fips": 5057,
            "longitude": -93.59486,
            "latitude": 33.657969,
            "timezone": "-6"
        },
        {
            "name": "Hot Spring",
            "fips": 5059,
            "longitude": -93.19533,
            "latitude": 34.285033,
            "timezone": "-6"
        },
        {
            "name": "Howard",
            "fips": 5061,
            "longitude": -94.03479,
            "latitude": 34.299569,
            "timezone": "-6"
        },
        {
            "name": "Independence",
            "fips": 5063,
            "longitude": -91.53548,
            "latitude": 35.956342,
            "timezone": "-6"
        },
        {
            "name": "Izard",
            "fips": 5065,
            "longitude": -91.92696,
            "latitude": 36.035962,
            "timezone": "-6"
        },
        {
            "name": "Jackson",
            "fips": 5067,
            "longitude": -91.26187,
            "latitude": 35.633263,
            "timezone": "-6"
        },
        {
            "name": "Jefferson",
            "fips": 5069,
            "longitude": -91.66201,
            "latitude": 34.396301,
            "timezone": "-6"
        },
        {
            "name": "Johnson",
            "fips": 5071,
            "longitude": -93.29708,
            "latitude": 35.651525,
            "timezone": "-6"
        },
        {
            "name": "Lafayette",
            "fips": 5073,
            "longitude": -93.47283,
            "latitude": 33.108043,
            "timezone": "-6"
        },
        {
            "name": "Lawrence",
            "fips": 5075,
            "longitude": -91.02349,
            "latitude": 35.972767,
            "timezone": "-6"
        },
        {
            "name": "Lee",
            "fips": 5077,
            "longitude": -90.78048,
            "latitude": 35.010683,
            "timezone": "-6"
        },
        {
            "name": "Lincoln",
            "fips": 5079,
            "longitude": -91.93607,
            "latitude": 33.592313,
            "timezone": "-6"
        },
        {
            "name": "Little River",
            "fips": 5081,
            "longitude": -94.14867,
            "latitude": 33.741986,
            "timezone": "-6"
        },
        {
            "name": "Logan",
            "fips": 5083,
            "longitude": -93.72139,
            "latitude": 35.293281,
            "timezone": "-6"
        },
        {
            "name": "Lonoke",
            "fips": 5085,
            "longitude": -92.01479,
            "latitude": 34.604268,
            "timezone": "-6"
        },
        {
            "name": "Madison",
            "fips": 5087,
            "longitude": -94.07141,
            "latitude": 36.342235,
            "timezone": "-6"
        },
        {
            "name": "Marion",
            "fips": 5089,
            "longitude": -93.09345,
            "latitude": 36.236984,
            "timezone": "-6"
        },
        {
            "name": "Miller",
            "fips": 5091,
            "longitude": -93.85202,
            "latitude": 33.271824,
            "timezone": "-6"
        },
        {
            "name": "Mississippi",
            "fips": 5093,
            "longitude": -90.028429,
            "latitude": 35.712249,
            "timezone": "-6"
        },
        {
            "name": "Monroe",
            "fips": 5095,
            "longitude": -91.10958,
            "latitude": 34.726737,
            "timezone": "-6"
        },
        {
            "name": "Montgomery",
            "fips": 5097,
            "longitude": -93.5993,
            "latitude": 34.320028,
            "timezone": "-6"
        },
        {
            "name": "Nevada",
            "fips": 5099,
            "longitude": -93.28269,
            "latitude": 33.551439,
            "timezone": "-6"
        },
        {
            "name": "Newton",
            "fips": 5101,
            "longitude": -93.23783,
            "latitude": 35.979619,
            "timezone": "-6"
        },
        {
            "name": "Ouachita",
            "fips": 5103,
            "longitude": -92.81368,
            "latitude": 33.578096,
            "timezone": "-6"
        },
        {
            "name": "Perry",
            "fips": 5105,
            "longitude": -92.79432,
            "latitude": 35.056424,
            "timezone": "-6"
        },
        {
            "name": "Phillips",
            "fips": 5107,
            "longitude": -90.84231,
            "latitude": 34.554559,
            "timezone": "-6"
        },
        {
            "name": "Pike",
            "fips": 5109,
            "longitude": -93.45822,
            "latitude": 34.257603,
            "timezone": "-6"
        },
        {
            "name": "Poinsett",
            "fips": 5111,
            "longitude": -90.34153,
            "latitude": 35.679593,
            "timezone": "-6"
        },
        {
            "name": "Polk",
            "fips": 5113,
            "longitude": -94.21567,
            "latitude": 34.588479,
            "timezone": "-6"
        },
        {
            "name": "Pope",
            "fips": 5115,
            "longitude": -93.10909,
            "latitude": 35.308848,
            "timezone": "-6"
        },
        {
            "name": "Prairie",
            "fips": 5117,
            "longitude": -91.59288,
            "latitude": 34.781079,
            "timezone": "-6"
        },
        {
            "name": "Pulaski",
            "fips": 5119,
            "longitude": -92.26463,
            "latitude": 34.763924,
            "timezone": "-6"
        },
        {
            "name": "Randolph",
            "fips": 5121,
            "longitude": -91.27997,
            "latitude": 36.20619,
            "timezone": "-6"
        },
        {
            "name": "St. Francis",
            "fips": 5123,
            "longitude": -90.8989,
            "latitude": 35.111687,
            "timezone": "-6"
        },
        {
            "name": "Saline",
            "fips": 5125,
            "longitude": -92.46989,
            "latitude": 34.523858,
            "timezone": "-6"
        },
        {
            "name": "Scott",
            "fips": 5127,
            "longitude": -93.77678,
            "latitude": 34.866017,
            "timezone": "-6"
        },
        {
            "name": "Searcy",
            "fips": 5129,
            "longitude": -92.57586,
            "latitude": 35.800025,
            "timezone": "-6"
        },
        {
            "name": "Sebastian",
            "fips": 5131,
            "longitude": -94.24376,
            "latitude": 35.200061,
            "timezone": "-6"
        },
        {
            "name": "Sevier",
            "fips": 5133,
            "longitude": -94.33597,
            "latitude": 34.038226,
            "timezone": "-6"
        },
        {
            "name": "Sharp",
            "fips": 5135,
            "longitude": -91.70461,
            "latitude": 36.033231,
            "timezone": "-6"
        },
        {
            "name": "Stone",
            "fips": 5137,
            "longitude": -92.32589,
            "latitude": 35.619538,
            "timezone": "-6"
        },
        {
            "name": "Union",
            "fips": 5139,
            "longitude": -92.66095,
            "latitude": 33.323051,
            "timezone": "-6"
        },
        {
            "name": "Van Buren",
            "fips": 5141,
            "longitude": -92.36279,
            "latitude": 35.452494,
            "timezone": "-6"
        },
        {
            "name": "Washington",
            "fips": 5143,
            "longitude": -94.1937,
            "latitude": 36.186059,
            "timezone": "-6"
        },
        {
            "name": "White",
            "fips": 5145,
            "longitude": -91.65148,
            "latitude": 35.319143,
            "timezone": "-6"
        },
        {
            "name": "Woodruff",
            "fips": 5147,
            "longitude": -90.83237,
            "latitude": 35.229779,
            "timezone": "-6"
        },
        {
            "name": "Yell",
            "fips": 5149,
            "longitude": -93.71111,
            "latitude": 34.832089,
            "timezone": "-6"
        }
    ],
    "CA": [
        {
            "name": "Alameda",
            "fips": 6001,
            "longitude": -121.9679,
            "latitude": 37.527237,
            "timezone": "-8"
        },
        {
            "name": "Alpine",
            "fips": 6003,
            "longitude": -120.28875,
            "latitude": 38.282255,
            "timezone": "-8"
        },
        {
            "name": "Amador",
            "fips": 6005,
            "longitude": -120.64952,
            "latitude": 38.40097,
            "timezone": "-8"
        },
        {
            "name": "Butte",
            "fips": 6007,
            "longitude": -121.53735,
            "latitude": 39.15973,
            "timezone": "-8"
        },
        {
            "name": "Calaveras",
            "fips": 6009,
            "longitude": -120.85733,
            "latitude": 38.145601,
            "timezone": "-8"
        },
        {
            "name": "Colusa",
            "fips": 6011,
            "longitude": -121.8981,
            "latitude": 39.070128,
            "timezone": "-8"
        },
        {
            "name": "Contra Costa",
            "fips": 6013,
            "longitude": -122.30426,
            "latitude": 37.917774,
            "timezone": "-8"
        },
        {
            "name": "Del Norte",
            "fips": 6015,
            "longitude": -123.80079,
            "latitude": 41.888557,
            "timezone": "-8"
        },
        {
            "name": "El Dorado",
            "fips": 6017,
            "longitude": -120.79533,
            "latitude": 38.724682,
            "timezone": "-8"
        },
        {
            "name": "Fresno",
            "fips": 6019,
            "longitude": -120.57996,
            "latitude": 36.800027,
            "timezone": "-8"
        },
        {
            "name": "Glenn",
            "fips": 6021,
            "longitude": -122.01675,
            "latitude": 39.738889,
            "timezone": "-8"
        },
        {
            "name": "Humboldt",
            "fips": 6023,
            "longitude": -124.14367,
            "latitude": 40.583488,
            "timezone": "-8"
        },
        {
            "name": "Imperial",
            "fips": 6025,
            "longitude": -115.58942,
            "latitude": 32.853471,
            "timezone": "-8"
        },
        {
            "name": "Inyo",
            "fips": 6027,
            "longitude": -117.218616,
            "latitude": 36.626033,
            "timezone": "-8"
        },
        {
            "name": "Kern",
            "fips": 6029,
            "longitude": -118.905173,
            "latitude": 35.294405,
            "timezone": "-8"
        },
        {
            "name": "Kings",
            "fips": 6031,
            "longitude": -119.82042,
            "latitude": 36.177361,
            "timezone": "-8"
        },
        {
            "name": "Lake",
            "fips": 6033,
            "longitude": "",
            "latitude": "",
            "timezone": ""
        },
        {
            "name": "Lassen",
            "fips": 6035,
            "longitude": -120.52472,
            "latitude": 41.021344,
            "timezone": "-8"
        },
        {
            "name": "Los Angeles",
            "fips": 6037,
            "longitude": -118.17568,
            "latitude": 34.08166,
            "timezone": "-8"
        },
        {
            "name": "Madera",
            "fips": 6039,
            "longitude": -119.56754,
            "latitude": 37.405699,
            "timezone": "-8"
        },
        {
            "name": "Marin",
            "fips": 6041,
            "longitude": -122.54589,
            "latitude": 38.019022,
            "timezone": "-8"
        },
        {
            "name": "Mariposa",
            "fips": 6043,
            "longitude": -119.64498,
            "latitude": 37.463177,
            "timezone": "-8"
        },
        {
            "name": "Mendocino",
            "fips": 6045,
            "longitude": -123.76087,
            "latitude": 39.43695,
            "timezone": "-8"
        },
        {
            "name": "Merced",
            "fips": 6047,
            "longitude": -120.46555,
            "latitude": 37.521832,
            "timezone": "-8"
        },
        {
            "name": "Modoc",
            "fips": 6049,
            "longitude": -121.332,
            "latitude": 41.114424,
            "timezone": "-8"
        },
        {
            "name": "Mono",
            "fips": 6051,
            "longitude": -118.38717,
            "latitude": 37.282192,
            "timezone": "-8"
        },
        {
            "name": "Monterey",
            "fips": 6053,
            "longitude": -121.65497,
            "latitude": 36.665879,
            "timezone": "-8"
        },
        {
            "name": "Napa",
            "fips": 6055,
            "longitude": -122.21035,
            "latitude": 38.099119,
            "timezone": "-8"
        },
        {
            "name": "Nevada",
            "fips": 6057,
            "longitude": -120.64145,
            "latitude": 39.26599,
            "timezone": "-8"
        },
        {
            "name": "Orange",
            "fips": 6059,
            "longitude": -118.08239,
            "latitude": 33.759283,
            "timezone": "-8"
        },
        {
            "name": "Placer",
            "fips": 6061,
            "longitude": -120.22805,
            "latitude": 39.339574,
            "timezone": "-8"
        },
        {
            "name": "Plumas",
            "fips": 6063,
            "longitude": -120.48359,
            "latitude": 39.801047,
            "timezone": "-8"
        },
        {
            "name": "Riverside",
            "fips": 6065,
            "longitude": -117.16837,
            "latitude": 33.922823,
            "timezone": "-8"
        },
        {
            "name": "Sacramento",
            "fips": 6067,
            "longitude": "",
            "latitude": "",
            "timezone": ""
        },
        {
            "name": "San Benito",
            "fips": 6069,
            "longitude": -121.01515,
            "latitude": 36.504586,
            "timezone": "-8"
        },
        {
            "name": "San Bernardino",
            "fips": 6071,
            "longitude": -117.2975,
            "latitude": 34.106965,
            "timezone": "-8"
        },
        {
            "name": "San Diego",
            "fips": 6073,
            "longitude": -116.73864,
            "latitude": 32.823102,
            "timezone": "-8"
        },
        {
            "name": "San Francisco",
            "fips": 6075,
            "longitude": -122.43836,
            "latitude": 37.801028,
            "timezone": "-8"
        },
        {
            "name": "San Joaquin",
            "fips": 6077,
            "longitude": -121.12546,
            "latitude": 37.742895,
            "timezone": "-8"
        },
        {
            "name": "San Luis Obispo",
            "fips": 6079,
            "longitude": -120.65401,
            "latitude": 35.150886,
            "timezone": "-8"
        },
        {
            "name": "San Mateo",
            "fips": 6081,
            "longitude": -122.12749,
            "latitude": 37.449888,
            "timezone": "-8"
        },
        {
            "name": "Santa Barbara",
            "fips": 6083,
            "longitude": -119.68412,
            "latitude": 34.428191,
            "timezone": "-8"
        },
        {
            "name": "Santa Clara",
            "fips": 6085,
            "longitude": -122.08787,
            "latitude": 37.380207,
            "timezone": "-8"
        },
        {
            "name": "Santa Cruz",
            "fips": 6087,
            "longitude": -121.9881,
            "latitude": 37.160012,
            "timezone": "-8"
        },
        {
            "name": "Shasta",
            "fips": 6089,
            "longitude": -122.11264,
            "latitude": 40.732501,
            "timezone": "-8"
        },
        {
            "name": "Sierra",
            "fips": 6091,
            "longitude": -120.84496,
            "latitude": 39.465229,
            "timezone": "-8"
        },
        {
            "name": "Siskiyou",
            "fips": 6093,
            "longitude": -122.9206,
            "latitude": 41.831947,
            "timezone": "-8"
        },
        {
            "name": "Solano",
            "fips": 6095,
            "longitude": -122.15517,
            "latitude": 38.071769,
            "timezone": "-8"
        },
        {
            "name": "Sonoma",
            "fips": 6097,
            "longitude": -122.6422,
            "latitude": 38.460594,
            "timezone": "-8"
        },
        {
            "name": "Stanislaus",
            "fips": 6099,
            "longitude": -120.95064,
            "latitude": 37.584282,
            "timezone": "-8"
        },
        {
            "name": "Sutter",
            "fips": 6101,
            "longitude": -121.83065,
            "latitude": 39.070323,
            "timezone": "-8"
        },
        {
            "name": "Tehama",
            "fips": 6103,
            "longitude": -122.21393,
            "latitude": 39.918271,
            "timezone": "-8"
        },
        {
            "name": "Trinity",
            "fips": 6105,
            "longitude": -123.53267,
            "latitude": 40.413386,
            "timezone": "-8"
        },
        {
            "name": "Tulare",
            "fips": 6107,
            "longitude": -119.03742,
            "latitude": 35.94901,
            "timezone": "-8"
        },
        {
            "name": "Tuolumne",
            "fips": 6109,
            "longitude": -120.39216,
            "latitude": 38.060956,
            "timezone": "-8"
        },
        {
            "name": "Ventura",
            "fips": 6111,
            "longitude": -119.05258,
            "latitude": 34.231754,
            "timezone": "-8"
        },
        {
            "name": "Yolo",
            "fips": 6113,
            "longitude": -121.80944,
            "latitude": 38.697238,
            "timezone": "-8"
        },
        {
            "name": "Yuba",
            "fips": 6115,
            "longitude": -121.28975,
            "latitude": 39.19322,
            "timezone": "-8"
        }
    ],
    "CO": [
        {
            "name": "Adams",
            "fips": 8001,
            "longitude": -104.8621,
            "latitude": 39.739387,
            "timezone": "-7"
        },
        {
            "name": "Alamosa",
            "fips": 8003,
            "longitude": -105.81264,
            "latitude": 37.779885,
            "timezone": "-7"
        },
        {
            "name": "Arapahoe",
            "fips": 8005,
            "longitude": -104.30997,
            "latitude": 39.776934,
            "timezone": "-7"
        },
        {
            "name": "Archuleta",
            "fips": 8007,
            "longitude": -107.64223,
            "latitude": 37.099348,
            "timezone": "-7"
        },
        {
            "name": "Baca",
            "fips": 8009,
            "longitude": -102.61726,
            "latitude": 37.409787,
            "timezone": "-7"
        },
        {
            "name": "Bent",
            "fips": 8011,
            "longitude": -103.54001,
            "latitude": 37.995879,
            "timezone": "-7"
        },
        {
            "name": "Boulder",
            "fips": 8013,
            "longitude": -105.10036,
            "latitude": 40.002156,
            "timezone": "-7"
        },
        {
            "name": "Broomfield",
            "fips": 8014,
            "longitude": "",
            "latitude": "",
            "timezone": ""
        },
        {
            "name": "Chaffee",
            "fips": 8015,
            "longitude": -106.14664,
            "latitude": 38.867111,
            "timezone": "-7"
        },
        {
            "name": "Cheyenne",
            "fips": 8017,
            "longitude": -102.37913,
            "latitude": 38.846982,
            "timezone": "-7"
        },
        {
            "name": "Clear Creek",
            "fips": 8019,
            "longitude": -105.71302,
            "latitude": 39.762835,
            "timezone": "-7"
        },
        {
            "name": "Conejos",
            "fips": 8021,
            "longitude": -105.90161,
            "latitude": 37.144944,
            "timezone": "-7"
        },
        {
            "name": "Costilla",
            "fips": 8023,
            "longitude": -105.429395,
            "latitude": 37.197731,
            "timezone": "-7"
        },
        {
            "name": "Crowley",
            "fips": 8025,
            "longitude": -103.67101,
            "latitude": 38.26144,
            "timezone": "-7"
        },
        {
            "name": "Custer",
            "fips": 8027,
            "longitude": -105.45798,
            "latitude": 38.130741,
            "timezone": "-7"
        },
        {
            "name": "Delta",
            "fips": 8029,
            "longitude": -107.96085,
            "latitude": 38.842439,
            "timezone": "-7"
        },
        {
            "name": "Denver",
            "fips": 8031,
            "longitude": -104.96698,
            "latitude": 39.706535,
            "timezone": "-7"
        },
        {
            "name": "Dolores",
            "fips": 8033,
            "longitude": -108.92455,
            "latitude": 37.775543,
            "timezone": "-7"
        },
        {
            "name": "Douglas",
            "fips": 8035,
            "longitude": -104.88288,
            "latitude": 39.579454,
            "timezone": "-7"
        },
        {
            "name": "Eagle",
            "fips": 8037,
            "longitude": -106.37859,
            "latitude": 39.459323,
            "timezone": "-7"
        },
        {
            "name": "Elbert",
            "fips": 8039,
            "longitude": -104.01594,
            "latitude": 39.631741,
            "timezone": "-7"
        },
        {
            "name": "El Paso",
            "fips": 8041,
            "longitude": -104.69627,
            "latitude": 38.674013,
            "timezone": "-7"
        },
        {
            "name": "Fremont",
            "fips": 8043,
            "longitude": -105.53192,
            "latitude": 38.357344,
            "timezone": "-7"
        },
        {
            "name": "Garfield",
            "fips": 8045,
            "longitude": -107.92158,
            "latitude": 40.042797,
            "timezone": "-7"
        },
        {
            "name": "Gilpin",
            "fips": 8047,
            "longitude": -105.53422,
            "latitude": 39.804776,
            "timezone": "-7"
        },
        {
            "name": "Grand",
            "fips": 8049,
            "longitude": -106.57267,
            "latitude": 39.871619,
            "timezone": "-7"
        },
        {
            "name": "Gunnison",
            "fips": 8051,
            "longitude": -106.95776,
            "latitude": 38.464132,
            "timezone": "-7"
        },
        {
            "name": "Hinsdale",
            "fips": 8053,
            "longitude": -107.11287,
            "latitude": 37.241179,
            "timezone": "-7"
        },
        {
            "name": "Huerfano",
            "fips": 8055,
            "longitude": -104.80456,
            "latitude": 37.621071,
            "timezone": "-7"
        },
        {
            "name": "Jackson",
            "fips": 8057,
            "longitude": -106.24457,
            "latitude": 40.621621,
            "timezone": "-7"
        },
        {
            "name": "Jefferson",
            "fips": 8059,
            "longitude": -105.09953,
            "latitude": 39.881608,
            "timezone": "-7"
        },
        {
            "name": "Kiowa",
            "fips": 8061,
            "longitude": -102.24844,
            "latitude": 38.44672,
            "timezone": "-7"
        },
        {
            "name": "Kit Carson",
            "fips": 8063,
            "longitude": -102.44357,
            "latitude": 39.302035,
            "timezone": "-7"
        },
        {
            "name": "Lake",
            "fips": 8065,
            "longitude": -106.32916,
            "latitude": 39.096394,
            "timezone": "-7"
        },
        {
            "name": "La Plata",
            "fips": 8067,
            "longitude": -108.29691,
            "latitude": 37.363564,
            "timezone": "-7"
        },
        {
            "name": "Larimer",
            "fips": 8069,
            "longitude": -105.11576,
            "latitude": 40.539432,
            "timezone": "-7"
        },
        {
            "name": "Las Animas",
            "fips": 8071,
            "longitude": -104.14826,
            "latitude": 37.096255,
            "timezone": "-7"
        },
        {
            "name": "Lincoln",
            "fips": 8073,
            "longitude": -103.76209,
            "latitude": 38.253191,
            "timezone": "-7"
        },
        {
            "name": "Logan",
            "fips": 8075,
            "longitude": -102.78823,
            "latitude": 40.888254,
            "timezone": "-7"
        },
        {
            "name": "Mesa",
            "fips": 8077,
            "longitude": "",
            "latitude": "",
            "timezone": ""
        },
        {
            "name": "Mineral",
            "fips": 8079,
            "longitude": -106.63177,
            "latitude": 37.671046,
            "timezone": "-7"
        },
        {
            "name": "Moffat",
            "fips": 8081,
            "longitude": -107.51756,
            "latitude": 40.298366,
            "timezone": "-7"
        },
        {
            "name": "Montezuma",
            "fips": 8083,
            "longitude": -108.60355,
            "latitude": 37.344985,
            "timezone": "-7"
        },
        {
            "name": "Montrose",
            "fips": 8085,
            "longitude": -108.08219,
            "latitude": 38.733901,
            "timezone": "-7"
        },
        {
            "name": "Morgan",
            "fips": 8087,
            "longitude": -103.80625,
            "latitude": 40.226357,
            "timezone": "-7"
        },
        {
            "name": "Otero",
            "fips": 8089,
            "longitude": -104.02959,
            "latitude": 37.513166,
            "timezone": "-7"
        },
        {
            "name": "Ouray",
            "fips": 8091,
            "longitude": -107.77322,
            "latitude": 38.131449,
            "timezone": "-7"
        },
        {
            "name": "Park",
            "fips": 8093,
            "longitude": -106.0065,
            "latitude": 39.22106,
            "timezone": "-7"
        },
        {
            "name": "Phillips",
            "fips": 8095,
            "longitude": -102.30451,
            "latitude": 40.582954,
            "timezone": "-7"
        },
        {
            "name": "Pitkin",
            "fips": 8097,
            "longitude": -106.8191,
            "latitude": 39.196857,
            "timezone": "-7"
        },
        {
            "name": "Prowers",
            "fips": 8099,
            "longitude": -102.19677,
            "latitude": 38.060575,
            "timezone": "-7"
        },
        {
            "name": "Pueblo",
            "fips": 8101,
            "longitude": -104.37807,
            "latitude": 38.089719,
            "timezone": "-7"
        },
        {
            "name": "Rio Blanco",
            "fips": 8103,
            "longitude": -107.89755,
            "latitude": 39.603225,
            "timezone": "-7"
        },
        {
            "name": "Rio Grande",
            "fips": 8105,
            "longitude": -105.83471,
            "latitude": 37.471802,
            "timezone": "-7"
        },
        {
            "name": "Routt",
            "fips": 8107,
            "longitude": -106.92691,
            "latitude": 40.348242,
            "timezone": "-7"
        },
        {
            "name": "Saguache",
            "fips": 8109,
            "longitude": -106.95776,
            "latitude": 38.464132,
            "timezone": "-7"
        },
        {
            "name": "San Juan",
            "fips": 8111,
            "longitude": -107.84945,
            "latitude": 37.295888,
            "timezone": "-7"
        },
        {
            "name": "San Miguel",
            "fips": 8113,
            "longitude": -108.43921,
            "latitude": 38.153484,
            "timezone": "-7"
        },
        {
            "name": "Sedgwick",
            "fips": 8115,
            "longitude": -102.54595,
            "latitude": 40.86845,
            "timezone": "-7"
        },
        {
            "name": "Summit",
            "fips": 8117,
            "longitude": -105.97937,
            "latitude": 39.607479,
            "timezone": "-7"
        },
        {
            "name": "Teller",
            "fips": 8119,
            "longitude": -105.18746,
            "latitude": 38.927344,
            "timezone": "-7"
        },
        {
            "name": "Washington",
            "fips": 8121,
            "longitude": -102.69005,
            "latitude": 40.169249,
            "timezone": "-7"
        },
        {
            "name": "Weld",
            "fips": 8123,
            "longitude": -105.08431,
            "latitude": 40.294423,
            "timezone": "-7"
        },
        {
            "name": "Yuma",
            "fips": 8125,
            "longitude": -102.21336,
            "latitude": 40.064734,
            "timezone": "-7"
        }
    ],
    "CT": [
        {
            "name": "Fairfield",
            "fips": 9001,
            "longitude": -73.1292,
            "latitude": 41.306396,
            "timezone": "-5"
        },
        {
            "name": "Hartford",
            "fips": 9003,
            "longitude": -72.93365,
            "latitude": 41.682249,
            "timezone": "-5"
        },
        {
            "name": "Litchfield",
            "fips": 9005,
            "longitude": -73.43722,
            "latitude": 41.951783,
            "timezone": "-5"
        },
        {
            "name": "Middlesex",
            "fips": 9007,
            "longitude": -72.6632,
            "latitude": 41.553672,
            "timezone": "-5"
        },
        {
            "name": "New Haven",
            "fips": 9009,
            "longitude": -72.60938,
            "latitude": 41.298648,
            "timezone": "-5"
        },
        {
            "name": "New London",
            "fips": 9011,
            "longitude": -72.10338,
            "latitude": 41.352498,
            "timezone": "-5"
        },
        {
            "name": "Tolland",
            "fips": 9013,
            "longitude": -72.20007,
            "latitude": 41.768455,
            "timezone": "-5"
        },
        {
            "name": "Windham",
            "fips": 9015,
            "longitude": -71.95989,
            "latitude": 41.782474,
            "timezone": "-5"
        }
    ],
    "DE": [
        {
            "name": "Kent",
            "fips": 10001,
            "longitude": -75.5587,
            "latitude": 39.161639,
            "timezone": "-5"
        },
        {
            "name": "New Castle",
            "fips": 10003,
            "longitude": -75.71386,
            "latitude": 39.626297,
            "timezone": "-5"
        },
        {
            "name": "Sussex",
            "fips": 10005,
            "longitude": -75.42595,
            "latitude": 38.80136,
            "timezone": "-5"
        }
    ],
    "DC": [
        {
            "name": "District of Columbia",
            "fips": 11001,
            "longitude": -77.036122,
            "latitude": 38.894781,
            "timezone": "-5"
        }
    ],
    "FL": [
        {
            "name": "Alachua",
            "fips": 12001,
            "longitude": -82.29591,
            "latitude": 29.713911,
            "timezone": "-5"
        },
        {
            "name": "Baker",
            "fips": 12003,
            "longitude": -82.26039,
            "latitude": 30.390734,
            "timezone": "-5"
        },
        {
            "name": "Bay",
            "fips": 12005,
            "longitude": -85.32792,
            "latitude": 29.846517,
            "timezone": "-5"
        },
        {
            "name": "Bradford",
            "fips": 12007,
            "longitude": "",
            "latitude": "",
            "timezone": ""
        },
        {
            "name": "Brevard",
            "fips": 12009,
            "longitude": -80.52879,
            "latitude": 27.929103,
            "timezone": "-5"
        },
        {
            "name": "Broward",
            "fips": 12011,
            "longitude": -80.27183,
            "latitude": 26.179495,
            "timezone": "-5"
        },
        {
            "name": "Calhoun",
            "fips": 12013,
            "longitude": -85.23283,
            "latitude": 30.675635,
            "timezone": "-6"
        },
        {
            "name": "Charlotte",
            "fips": 12015,
            "longitude": -82.14859,
            "latitude": 26.984486,
            "timezone": "-5"
        },
        {
            "name": "Citrus",
            "fips": 12017,
            "longitude": -82.39477,
            "latitude": 28.932925,
            "timezone": "-5"
        },
        {
            "name": "Clay",
            "fips": 12019,
            "longitude": "",
            "latitude": "",
            "timezone": ""
        },
        {
            "name": "Collier",
            "fips": 12021,
            "longitude": -81.83134,
            "latitude": 26.348608,
            "timezone": "-5"
        },
        {
            "name": "Columbia",
            "fips": 12023,
            "longitude": -82.50337,
            "latitude": 30.101542,
            "timezone": "-5"
        },
        {
            "name": "DeSoto",
            "fips": 12027,
            "longitude": -81.87196,
            "latitude": 27.201006,
            "timezone": "-5"
        },
        {
            "name": "Dixie",
            "fips": 12029,
            "longitude": -83.27604,
            "latitude": 29.458513,
            "timezone": "-5"
        },
        {
            "name": "Duval",
            "fips": 12031,
            "longitude": -81.72044,
            "latitude": 30.307439,
            "timezone": "-5"
        },
        {
            "name": "Escambia",
            "fips": 12033,
            "longitude": -87.22305,
            "latitude": 30.420997,
            "timezone": "-6"
        },
        {
            "name": "Flagler",
            "fips": 12035,
            "longitude": -81.46122,
            "latitude": 29.656806,
            "timezone": "-5"
        },
        {
            "name": "Franklin",
            "fips": 12037,
            "longitude": -84.6407,
            "latitude": 29.912584,
            "timezone": "-5"
        },
        {
            "name": "Gadsden",
            "fips": 12039,
            "longitude": -84.6147,
            "latitude": 30.573563,
            "timezone": "-5"
        },
        {
            "name": "Gilchrist",
            "fips": 12041,
            "longitude": -82.60407,
            "latitude": 29.823616,
            "timezone": "-5"
        },
        {
            "name": "Glades",
            "fips": 12043,
            "longitude": -81.43029,
            "latitude": 26.760476,
            "timezone": "-5"
        },
        {
            "name": "Gulf",
            "fips": 12045,
            "longitude": -85.22822,
            "latitude": 30.045471,
            "timezone": "-6"
        },
        {
            "name": "Hamilton",
            "fips": 12047,
            "longitude": -82.94876,
            "latitude": 30.491893,
            "timezone": "-5"
        },
        {
            "name": "Hardee",
            "fips": 12049,
            "longitude": -81.8127,
            "latitude": 27.541676,
            "timezone": "-5"
        },
        {
            "name": "Hendry",
            "fips": 12051,
            "longitude": -81.1105,
            "latitude": 26.844989,
            "timezone": "-5"
        },
        {
            "name": "Hernando",
            "fips": 12053,
            "longitude": -82.422554,
            "latitude": 28.505896,
            "timezone": "-5"
        },
        {
            "name": "Highlands",
            "fips": 12055,
            "longitude": -81.38206,
            "latitude": 27.293327,
            "timezone": "-5"
        },
        {
            "name": "Hillsborough",
            "fips": 12057,
            "longitude": -82.2948,
            "latitude": 27.911201,
            "timezone": "-5"
        },
        {
            "name": "Holmes",
            "fips": 12059,
            "longitude": -85.768022,
            "latitude": 30.849972,
            "timezone": "-6"
        },
        {
            "name": "Indian River",
            "fips": 12061,
            "longitude": -80.39141,
            "latitude": 27.582151,
            "timezone": "-5"
        },
        {
            "name": "Jackson",
            "fips": 12063,
            "longitude": -85.0779,
            "latitude": 30.713868,
            "timezone": "-6"
        },
        {
            "name": "Jefferson",
            "fips": 12065,
            "longitude": -83.88017,
            "latitude": 30.530854,
            "timezone": "-5"
        },
        {
            "name": "Lafayette",
            "fips": 12067,
            "longitude": -83.21849,
            "latitude": 30.084849,
            "timezone": "-5"
        },
        {
            "name": "Lake",
            "fips": 12069,
            "longitude": -81.64043,
            "latitude": 29.046215,
            "timezone": "-5"
        },
        {
            "name": "Lee",
            "fips": 12071,
            "longitude": -81.95528,
            "latitude": 26.582185,
            "timezone": "-5"
        },
        {
            "name": "Leon",
            "fips": 12073,
            "longitude": -84.23331,
            "latitude": 30.420146,
            "timezone": "-5"
        },
        {
            "name": "Levy",
            "fips": 12075,
            "longitude": -82.86837,
            "latitude": 29.453178,
            "timezone": "-5"
        },
        {
            "name": "Liberty",
            "fips": 12077,
            "longitude": -84.77767,
            "latitude": 30.381958,
            "timezone": "-5"
        },
        {
            "name": "Madison",
            "fips": 12079,
            "longitude": -83.40303,
            "latitude": 30.476181,
            "timezone": "-5"
        },
        {
            "name": "Manatee",
            "fips": 12081,
            "longitude": -82.7129,
            "latitude": 27.499982,
            "timezone": "-5"
        },
        {
            "name": "Marion",
            "fips": 12083,
            "longitude": -82.49831,
            "latitude": 29.369207,
            "timezone": "-5"
        },
        {
            "name": "Martin",
            "fips": 12085,
            "longitude": -80.21143,
            "latitude": 27.195927,
            "timezone": "-5"
        },
        {
            "name": "Miami-Dade",
            "fips": 12086,
            "longitude": -80.44721,
            "latitude": 25.70028,
            "timezone": "-5"
        },
        {
            "name": "Monroe",
            "fips": 12087,
            "longitude": -81.34359,
            "latitude": 24.675731,
            "timezone": "-5"
        },
        {
            "name": "Nassau",
            "fips": 12089,
            "longitude": -81.46092,
            "latitude": 30.641487,
            "timezone": "-5"
        },
        {
            "name": "Okaloosa",
            "fips": 12091,
            "longitude": -86.57331,
            "latitude": 30.444975,
            "timezone": "-6"
        },
        {
            "name": "Okeechobee",
            "fips": 12093,
            "longitude": -80.802656,
            "latitude": 27.297631,
            "timezone": "-5"
        },
        {
            "name": "Orange",
            "fips": 12095,
            "longitude": -81.30606,
            "latitude": 28.607077,
            "timezone": "-5"
        },
        {
            "name": "Osceola",
            "fips": 12097,
            "longitude": -81.48731,
            "latitude": 28.178192,
            "timezone": "-5"
        },
        {
            "name": "Palm Beach",
            "fips": 12099,
            "longitude": -80.06528,
            "latitude": 26.782114,
            "timezone": "-5"
        },
        {
            "name": "Pasco",
            "fips": 12101,
            "longitude": -82.415275,
            "latitude": 28.156536,
            "timezone": "-5"
        },
        {
            "name": "Pinellas",
            "fips": 12103,
            "longitude": -82.72865,
            "latitude": 27.815953,
            "timezone": "-5"
        },
        {
            "name": "Polk",
            "fips": 12105,
            "longitude": -81.522998,
            "latitude": 27.885359,
            "timezone": "-5"
        },
        {
            "name": "Putnam",
            "fips": 12107,
            "longitude": -82.0309,
            "latitude": 29.601599,
            "timezone": "-5"
        },
        {
            "name": "St. Johns",
            "fips": 12109,
            "longitude": -81.600108,
            "latitude": 29.50199,
            "timezone": "-5"
        },
        {
            "name": "St. Lucie",
            "fips": 12111,
            "longitude": -80.36247,
            "latitude": 27.448688,
            "timezone": "-5"
        },
        {
            "name": "Santa Rosa",
            "fips": 12113,
            "longitude": -87.04972,
            "latitude": 30.659159,
            "timezone": "-6"
        },
        {
            "name": "Sarasota",
            "fips": 12115,
            "longitude": -82.51663,
            "latitude": 27.267649,
            "timezone": "-5"
        },
        {
            "name": "Seminole",
            "fips": 12117,
            "longitude": -81.30606,
            "latitude": 28.607077,
            "timezone": "-5"
        },
        {
            "name": "Sumter",
            "fips": 12119,
            "longitude": -82.0321,
            "latitude": 28.852564,
            "timezone": "-5"
        },
        {
            "name": "Suwannee",
            "fips": 12121,
            "longitude": -82.98732,
            "latitude": 30.13762,
            "timezone": "-5"
        },
        {
            "name": "Taylor",
            "fips": 12123,
            "longitude": -83.659371,
            "latitude": 29.966454,
            "timezone": "-5"
        },
        {
            "name": "Union",
            "fips": 12125,
            "longitude": -82.38103,
            "latitude": 30.005135,
            "timezone": "-5"
        },
        {
            "name": "Volusia",
            "fips": 12127,
            "longitude": -81.18764,
            "latitude": 28.910383,
            "timezone": "-5"
        },
        {
            "name": "Wakulla",
            "fips": 12129,
            "longitude": -84.20923,
            "latitude": 30.162414,
            "timezone": "-5"
        },
        {
            "name": "Walton",
            "fips": 12131,
            "longitude": -86.14665,
            "latitude": 30.747244,
            "timezone": "-6"
        },
        {
            "name": "Washington",
            "fips": 12133,
            "longitude": -85.88079,
            "latitude": 30.443152,
            "timezone": "-6"
        }
    ],
    "GA": [
        {
            "name": "Appling",
            "fips": 13001,
            "longitude": -82.10743,
            "latitude": 31.372403,
            "timezone": "-5"
        },
        {
            "name": "Atkinson",
            "fips": 13003,
            "longitude": -82.6201,
            "latitude": 31.281103,
            "timezone": "-5"
        },
        {
            "name": "Bacon",
            "fips": 13005,
            "longitude": -82.44618,
            "latitude": 31.551458,
            "timezone": "-5"
        },
        {
            "name": "Baker",
            "fips": 13007,
            "longitude": -84.248211,
            "latitude": 31.56889,
            "timezone": "-5"
        },
        {
            "name": "Baldwin",
            "fips": 13009,
            "longitude": -83.00647,
            "latitude": 33.260235,
            "timezone": "-5"
        },
        {
            "name": "Banks",
            "fips": 13011,
            "longitude": -83.65226,
            "latitude": 34.299459,
            "timezone": "-5"
        },
        {
            "name": "Barrow",
            "fips": 13013,
            "longitude": -83.58491,
            "latitude": 33.957713,
            "timezone": "-5"
        },
        {
            "name": "Bartow",
            "fips": 13015,
            "longitude": -84.77533,
            "latitude": 34.200264,
            "timezone": "-5"
        },
        {
            "name": "Ben Hill",
            "fips": 13017,
            "longitude": -83.05502,
            "latitude": 31.621764,
            "timezone": "-5"
        },
        {
            "name": "Berrien",
            "fips": 13019,
            "longitude": -83.34041,
            "latitude": 31.439212,
            "timezone": "-5"
        },
        {
            "name": "Bibb",
            "fips": 13021,
            "longitude": -83.6793,
            "latitude": 32.730641,
            "timezone": "-5"
        },
        {
            "name": "Bleckley",
            "fips": 13023,
            "longitude": -83.24549,
            "latitude": 32.600844,
            "timezone": "-5"
        },
        {
            "name": "Brantley",
            "fips": 13025,
            "longitude": -81.97244,
            "latitude": 31.17326,
            "timezone": "-5"
        },
        {
            "name": "Brooks",
            "fips": 13027,
            "longitude": -83.30078,
            "latitude": 30.866613,
            "timezone": "-5"
        },
        {
            "name": "Bryan",
            "fips": 13029,
            "longitude": -81.48447,
            "latitude": 32.172661,
            "timezone": "-5"
        },
        {
            "name": "Bulloch",
            "fips": 13031,
            "longitude": -81.89818,
            "latitude": 32.327219,
            "timezone": "-5"
        },
        {
            "name": "Burke",
            "fips": 13033,
            "longitude": -82.23715,
            "latitude": 32.792831,
            "timezone": "-5"
        },
        {
            "name": "Butts",
            "fips": 13035,
            "longitude": -83.97568,
            "latitude": 33.294522,
            "timezone": "-5"
        },
        {
            "name": "Calhoun",
            "fips": 13037,
            "longitude": "",
            "latitude": "",
            "timezone": ""
        },
        {
            "name": "Camden",
            "fips": 13039,
            "longitude": -81.56912,
            "latitude": 30.761081,
            "timezone": "-5"
        },
        {
            "name": "Candler",
            "fips": 13043,
            "longitude": -82.05534,
            "latitude": 32.414401,
            "timezone": "-5"
        },
        {
            "name": "Carroll",
            "fips": 13045,
            "longitude": -85.16973,
            "latitude": 33.434562,
            "timezone": "-5"
        },
        {
            "name": "Catoosa",
            "fips": 13047,
            "longitude": -85.1416,
            "latitude": 34.975939,
            "timezone": "-5"
        },
        {
            "name": "Charlton",
            "fips": 13049,
            "longitude": -82.02194,
            "latitude": 30.860915,
            "timezone": "-5"
        },
        {
            "name": "Chatham",
            "fips": 13051,
            "longitude": -81.20259,
            "latitude": 31.986249,
            "timezone": "-5"
        },
        {
            "name": "Chattahoochee",
            "fips": 13053,
            "longitude": -84.76332,
            "latitude": 32.285535,
            "timezone": "-5"
        },
        {
            "name": "Chattooga",
            "fips": 13055,
            "longitude": -85.30301,
            "latitude": 34.558404,
            "timezone": "-5"
        },
        {
            "name": "Cherokee",
            "fips": 13057,
            "longitude": -84.37204,
            "latitude": 34.344939,
            "timezone": "-5"
        },
        {
            "name": "Clarke",
            "fips": 13059,
            "longitude": -83.3749,
            "latitude": 33.948432,
            "timezone": "-5"
        },
        {
            "name": "Clay",
            "fips": 13061,
            "longitude": "",
            "latitude": "",
            "timezone": ""
        },
        {
            "name": "Clayton",
            "fips": 13063,
            "longitude": -84.32753,
            "latitude": 33.647275,
            "timezone": "-5"
        },
        {
            "name": "Clinch",
            "fips": 13065,
            "longitude": -82.83342,
            "latitude": 31.27291,
            "timezone": "-5"
        },
        {
            "name": "Cobb",
            "fips": 13067,
            "longitude": -84.47633,
            "latitude": 33.933002,
            "timezone": "-5"
        },
        {
            "name": "Coffee",
            "fips": 13069,
            "longitude": -82.86325,
            "latitude": 31.464973,
            "timezone": "-5"
        },
        {
            "name": "Colquitt",
            "fips": 13071,
            "longitude": -83.77172,
            "latitude": 31.165358,
            "timezone": "-5"
        },
        {
            "name": "Columbia",
            "fips": 13073,
            "longitude": -82.0697,
            "latitude": 33.475936,
            "timezone": "-5"
        },
        {
            "name": "Cook",
            "fips": 13075,
            "longitude": -83.39135,
            "latitude": 31.047996,
            "timezone": "-5"
        },
        {
            "name": "Coweta",
            "fips": 13077,
            "longitude": -84.58017,
            "latitude": 33.281102,
            "timezone": "-5"
        },
        {
            "name": "Crawford",
            "fips": 13079,
            "longitude": -83.88641,
            "latitude": 32.55568,
            "timezone": "-5"
        },
        {
            "name": "Crisp",
            "fips": 13081,
            "longitude": -83.86973,
            "latitude": 31.782466,
            "timezone": "-5"
        },
        {
            "name": "Dade",
            "fips": 13083,
            "longitude": -85.37183,
            "latitude": 34.957134,
            "timezone": "-5"
        },
        {
            "name": "Dawson",
            "fips": 13085,
            "longitude": -83.99718,
            "latitude": 34.542098,
            "timezone": "-5"
        },
        {
            "name": "Decatur",
            "fips": 13087,
            "longitude": "",
            "latitude": "",
            "timezone": ""
        },
        {
            "name": "DeKalb",
            "fips": 13089,
            "longitude": -84.15381,
            "latitude": 33.676358,
            "timezone": "-5"
        },
        {
            "name": "Dodge",
            "fips": 13091,
            "longitude": -82.91713,
            "latitude": 32.094127,
            "timezone": "-5"
        },
        {
            "name": "Dooly",
            "fips": 13093,
            "longitude": -83.56747,
            "latitude": 31.951839,
            "timezone": "-5"
        },
        {
            "name": "Dougherty",
            "fips": 13095,
            "longitude": -84.219594,
            "latitude": 31.543065,
            "timezone": "-5"
        },
        {
            "name": "Douglas",
            "fips": 13097,
            "longitude": -84.744595,
            "latitude": 33.68966,
            "timezone": "-5"
        },
        {
            "name": "Early",
            "fips": 13099,
            "longitude": "",
            "latitude": "",
            "timezone": ""
        },
        {
            "name": "Echols",
            "fips": 13101,
            "longitude": -83.02568,
            "latitude": 30.703175,
            "timezone": "-5"
        },
        {
            "name": "Effingham",
            "fips": 13103,
            "longitude": -81.23006,
            "latitude": 32.293147,
            "timezone": "-5"
        },
        {
            "name": "Elbert",
            "fips": 13105,
            "longitude": -82.94112,
            "latitude": 34.212836,
            "timezone": "-5"
        },
        {
            "name": "Emanuel",
            "fips": 13107,
            "longitude": -82.30448,
            "latitude": 32.177508,
            "timezone": "-5"
        },
        {
            "name": "Evans",
            "fips": 13109,
            "longitude": -81.83478,
            "latitude": 32.150061,
            "timezone": "-5"
        },
        {
            "name": "Fannin",
            "fips": 13111,
            "longitude": -84.42981,
            "latitude": 34.925622,
            "timezone": "-5"
        },
        {
            "name": "Fayette",
            "fips": 13113,
            "longitude": -84.58724,
            "latitude": 33.48012,
            "timezone": "-5"
        },
        {
            "name": "Floyd",
            "fips": 13115,
            "longitude": -85.182085,
            "latitude": 34.280355,
            "timezone": "-5"
        },
        {
            "name": "Forsyth",
            "fips": 13117,
            "longitude": -84.10849,
            "latitude": 34.416521,
            "timezone": "-5"
        },
        {
            "name": "Franklin",
            "fips": 13119,
            "longitude": -83.38389,
            "latitude": 34.209907,
            "timezone": "-5"
        },
        {
            "name": "Fulton",
            "fips": 13121,
            "longitude": -84.21929,
            "latitude": 34.080035,
            "timezone": "-5"
        },
        {
            "name": "Gilmer",
            "fips": 13123,
            "longitude": -84.10849,
            "latitude": 34.416521,
            "timezone": "-5"
        },
        {
            "name": "Glascock",
            "fips": 13125,
            "longitude": -82.46303,
            "latitude": 33.234802,
            "timezone": "-5"
        },
        {
            "name": "Glynn",
            "fips": 13127,
            "longitude": -81.3802,
            "latitude": 31.176516,
            "timezone": "-5"
        },
        {
            "name": "Gordon",
            "fips": 13129,
            "longitude": -84.711863,
            "latitude": 34.569015,
            "timezone": "-5"
        },
        {
            "name": "Grady",
            "fips": 13131,
            "longitude": -84.0615,
            "latitude": 30.977162,
            "timezone": "-5"
        },
        {
            "name": "Greene",
            "fips": 13133,
            "longitude": -83.08857,
            "latitude": 33.652489,
            "timezone": "-5"
        },
        {
            "name": "Gwinnett",
            "fips": 13135,
            "longitude": -83.73524,
            "latitude": 33.928949,
            "timezone": "-5"
        },
        {
            "name": "Habersham",
            "fips": 13137,
            "longitude": -83.58913,
            "latitude": 34.455729,
            "timezone": "-5"
        },
        {
            "name": "Hall",
            "fips": 13139,
            "longitude": -83.94701,
            "latitude": 34.089419,
            "timezone": "-5"
        },
        {
            "name": "Hancock",
            "fips": 13141,
            "longitude": -83.00647,
            "latitude": 33.260235,
            "timezone": "-5"
        },
        {
            "name": "Haralson",
            "fips": 13143,
            "longitude": -85.20291,
            "latitude": 33.84627,
            "timezone": "-5"
        },
        {
            "name": "Harris",
            "fips": 13145,
            "longitude": -84.88805,
            "latitude": 32.651617,
            "timezone": "-5"
        },
        {
            "name": "Hart",
            "fips": 13147,
            "longitude": -82.94112,
            "latitude": 34.212836,
            "timezone": "-5"
        },
        {
            "name": "Heard",
            "fips": 13149,
            "longitude": -85.12243,
            "latitude": 33.298014,
            "timezone": "-5"
        },
        {
            "name": "Henry",
            "fips": 13151,
            "longitude": -84.33347,
            "latitude": 33.528345,
            "timezone": "-5"
        },
        {
            "name": "Houston",
            "fips": 13153,
            "longitude": -83.75918,
            "latitude": 32.652313,
            "timezone": "-5"
        },
        {
            "name": "Irwin",
            "fips": 13155,
            "longitude": -83.57934,
            "latitude": 31.652542,
            "timezone": "-5"
        },
        {
            "name": "Jackson",
            "fips": 13157,
            "longitude": -83.51552,
            "latitude": 33.927792,
            "timezone": "-5"
        },
        {
            "name": "Jasper",
            "fips": 13159,
            "longitude": -83.61433,
            "latitude": 33.421694,
            "timezone": "-5"
        },
        {
            "name": "Jeff Davis",
            "fips": 13161,
            "longitude": -82.44618,
            "latitude": 31.551458,
            "timezone": "-5"
        },
        {
            "name": "Jefferson",
            "fips": 13163,
            "longitude": -82.52017,
            "latitude": 33.163467,
            "timezone": "-5"
        },
        {
            "name": "Jenkins",
            "fips": 13165,
            "longitude": -82.036,
            "latitude": 32.632683,
            "timezone": "-5"
        },
        {
            "name": "Johnson",
            "fips": 13167,
            "longitude": -82.51381,
            "latitude": 32.69992,
            "timezone": "-5"
        },
        {
            "name": "Jones",
            "fips": 13169,
            "longitude": -83.64873,
            "latitude": 32.594698,
            "timezone": "-5"
        },
        {
            "name": "Lamar",
            "fips": 13171,
            "longitude": -84.19386,
            "latitude": 33.136567,
            "timezone": "-5"
        },
        {
            "name": "Lanier",
            "fips": 13173,
            "longitude": -83.20286,
            "latitude": 31.070627,
            "timezone": "-5"
        },
        {
            "name": "Laurens",
            "fips": 13175,
            "longitude": -83.09905,
            "latitude": 32.516865,
            "timezone": "-5"
        },
        {
            "name": "Lee",
            "fips": 13177,
            "longitude": -84.248211,
            "latitude": 31.56889,
            "timezone": "-5"
        },
        {
            "name": "Liberty",
            "fips": 13179,
            "longitude": -81.61083,
            "latitude": 31.868699,
            "timezone": "-5"
        },
        {
            "name": "Lincoln",
            "fips": 13181,
            "longitude": -82.6684,
            "latitude": 33.912362,
            "timezone": "-5"
        },
        {
            "name": "Long",
            "fips": 13183,
            "longitude": -81.6098,
            "latitude": 31.764663,
            "timezone": "-5"
        },
        {
            "name": "Lowndes",
            "fips": 13185,
            "longitude": -83.30078,
            "latitude": 30.866613,
            "timezone": "-5"
        },
        {
            "name": "Lumpkin",
            "fips": 13187,
            "longitude": -83.76194,
            "latitude": 34.595859,
            "timezone": "-5"
        },
        {
            "name": "McDuffie",
            "fips": 13189,
            "longitude": -82.31013,
            "latitude": 33.42359,
            "timezone": "-5"
        },
        {
            "name": "McIntosh",
            "fips": 13191,
            "longitude": -81.48778,
            "latitude": 31.658252,
            "timezone": "-5"
        },
        {
            "name": "Macon",
            "fips": 13193,
            "longitude": -84.137,
            "latitude": 32.195361,
            "timezone": "-5"
        },
        {
            "name": "Madison",
            "fips": 13195,
            "longitude": -83.2673,
            "latitude": 33.954047,
            "timezone": "-5"
        },
        {
            "name": "Marion",
            "fips": 13197,
            "longitude": -84.42804,
            "latitude": 32.498727,
            "timezone": "-5"
        },
        {
            "name": "Meriwether",
            "fips": 13199,
            "longitude": -84.73593,
            "latitude": 33.034761,
            "timezone": "-5"
        },
        {
            "name": "Miller",
            "fips": 13201,
            "longitude": "",
            "latitude": "",
            "timezone": ""
        },
        {
            "name": "Mitchell",
            "fips": 13205,
            "longitude": -84.23667,
            "latitude": 31.209854,
            "timezone": "-5"
        },
        {
            "name": "Monroe",
            "fips": 13207,
            "longitude": -83.72204,
            "latitude": 32.88899,
            "timezone": "-5"
        },
        {
            "name": "Montgomery",
            "fips": 13209,
            "longitude": -82.47988,
            "latitude": 32.083879,
            "timezone": "-5"
        },
        {
            "name": "Morgan",
            "fips": 13211,
            "longitude": -83.70779,
            "latitude": 33.65072,
            "timezone": "-5"
        },
        {
            "name": "Murray",
            "fips": 13213,
            "longitude": -84.91926,
            "latitude": 34.604648,
            "timezone": "-5"
        },
        {
            "name": "Muscogee",
            "fips": 13215,
            "longitude": -84.98005,
            "latitude": 32.471492,
            "timezone": "-5"
        },
        {
            "name": "Newton",
            "fips": 13217,
            "longitude": -83.74735,
            "latitude": 33.504952,
            "timezone": "-5"
        },
        {
            "name": "Oconee",
            "fips": 13219,
            "longitude": -83.71061,
            "latitude": 33.992538,
            "timezone": "-5"
        },
        {
            "name": "Oglethorpe",
            "fips": 13221,
            "longitude": -83.11913,
            "latitude": 34.072573,
            "timezone": "-5"
        },
        {
            "name": "Paulding",
            "fips": 13223,
            "longitude": -84.68784,
            "latitude": 33.874553,
            "timezone": "-5"
        },
        {
            "name": "Peach",
            "fips": 13225,
            "longitude": -83.75918,
            "latitude": 32.652313,
            "timezone": "-5"
        },
        {
            "name": "Pickens",
            "fips": 13227,
            "longitude": -84.41583,
            "latitude": 34.454934,
            "timezone": "-5"
        },
        {
            "name": "Pierce",
            "fips": 13229,
            "longitude": -82.37534,
            "latitude": 31.205194,
            "timezone": "-5"
        },
        {
            "name": "Pike",
            "fips": 13231,
            "longitude": -84.47168,
            "latitude": 32.999261,
            "timezone": "-5"
        },
        {
            "name": "Polk",
            "fips": 13233,
            "longitude": -85.172297,
            "latitude": 33.99994,
            "timezone": "-5"
        },
        {
            "name": "Pulaski",
            "fips": 13235,
            "longitude": -83.48517,
            "latitude": 32.270314,
            "timezone": "-5"
        },
        {
            "name": "Putnam",
            "fips": 13237,
            "longitude": -83.35432,
            "latitude": 33.318579,
            "timezone": "-5"
        },
        {
            "name": "Quitman",
            "fips": 13239,
            "longitude": "",
            "latitude": "",
            "timezone": ""
        },
        {
            "name": "Rabun",
            "fips": 13241,
            "longitude": -83.4156,
            "latitude": 34.882362,
            "timezone": "-5"
        },
        {
            "name": "Randolph",
            "fips": 13243,
            "longitude": "",
            "latitude": "",
            "timezone": ""
        },
        {
            "name": "Richmond",
            "fips": 13245,
            "longitude": -82.090996,
            "latitude": 33.386041,
            "timezone": "-5"
        },
        {
            "name": "Rockdale",
            "fips": 13247,
            "longitude": -83.93372,
            "latitude": 33.542118,
            "timezone": "-5"
        },
        {
            "name": "Schley",
            "fips": 13249,
            "longitude": -84.32008,
            "latitude": 32.246795,
            "timezone": "-5"
        },
        {
            "name": "Screven",
            "fips": 13251,
            "longitude": -81.63251,
            "latitude": 33.032445,
            "timezone": "-5"
        },
        {
            "name": "Seminole",
            "fips": 13253,
            "longitude": "",
            "latitude": "",
            "timezone": ""
        },
        {
            "name": "Spalding",
            "fips": 13255,
            "longitude": -84.37168,
            "latitude": 33.169646,
            "timezone": "-5"
        },
        {
            "name": "Stephens",
            "fips": 13257,
            "longitude": -83.17539,
            "latitude": 34.491829,
            "timezone": "-5"
        },
        {
            "name": "Stewart",
            "fips": 13259,
            "longitude": -84.98499,
            "latitude": 32.1342,
            "timezone": "-5"
        },
        {
            "name": "Sumter",
            "fips": 13261,
            "longitude": -84.25037,
            "latitude": 31.901066,
            "timezone": "-5"
        },
        {
            "name": "Talbot",
            "fips": 13263,
            "longitude": -84.54095,
            "latitude": 32.797475,
            "timezone": "-5"
        },
        {
            "name": "Taliaferro",
            "fips": 13265,
            "longitude": -82.88542,
            "latitude": 33.570317,
            "timezone": "-5"
        },
        {
            "name": "Tattnall",
            "fips": 13267,
            "longitude": -82.10699,
            "latitude": 32.186824,
            "timezone": "-5"
        },
        {
            "name": "Taylor",
            "fips": 13269,
            "longitude": -84.28475,
            "latitude": 32.419094,
            "timezone": "-5"
        },
        {
            "name": "Telfair",
            "fips": 13271,
            "longitude": -82.96137,
            "latitude": 31.840974,
            "timezone": "-5"
        },
        {
            "name": "Terrell",
            "fips": 13273,
            "longitude": "",
            "latitude": "",
            "timezone": ""
        },
        {
            "name": "Thomas",
            "fips": 13275,
            "longitude": -83.78882,
            "latitude": 30.782963,
            "timezone": "-5"
        },
        {
            "name": "Tift",
            "fips": 13277,
            "longitude": -83.66519,
            "latitude": 31.709742,
            "timezone": "-5"
        },
        {
            "name": "Toombs",
            "fips": 13279,
            "longitude": -82.30448,
            "latitude": 32.177508,
            "timezone": "-5"
        },
        {
            "name": "Towns",
            "fips": 13281,
            "longitude": -83.4156,
            "latitude": 34.882362,
            "timezone": "-5"
        },
        {
            "name": "Treutlen",
            "fips": 13283,
            "longitude": -82.41493,
            "latitude": 32.220155,
            "timezone": "-5"
        },
        {
            "name": "Troup",
            "fips": 13285,
            "longitude": -84.88437,
            "latitude": 32.867211,
            "timezone": "-5"
        },
        {
            "name": "Turner",
            "fips": 13287,
            "longitude": -83.66519,
            "latitude": 31.709742,
            "timezone": "-5"
        },
        {
            "name": "Twiggs",
            "fips": 13289,
            "longitude": -83.4905,
            "latitude": 32.719907,
            "timezone": "-5"
        },
        {
            "name": "Union",
            "fips": 13291,
            "longitude": -83.86484,
            "latitude": 34.954638,
            "timezone": "-5"
        },
        {
            "name": "Upson",
            "fips": 13293,
            "longitude": -84.14862,
            "latitude": 33.05413,
            "timezone": "-5"
        },
        {
            "name": "Walker",
            "fips": 13295,
            "longitude": -85.30301,
            "latitude": 34.558404,
            "timezone": "-5"
        },
        {
            "name": "Walton",
            "fips": 13297,
            "longitude": -83.86249,
            "latitude": 33.658113,
            "timezone": "-5"
        },
        {
            "name": "Ware",
            "fips": 13299,
            "longitude": -82.6201,
            "latitude": 31.281103,
            "timezone": "-5"
        },
        {
            "name": "Warren",
            "fips": 13301,
            "longitude": -82.46303,
            "latitude": 33.234802,
            "timezone": "-5"
        },
        {
            "name": "Washington",
            "fips": 13303,
            "longitude": -82.50969,
            "latitude": 32.884137,
            "timezone": "-5"
        },
        {
            "name": "Wayne",
            "fips": 13305,
            "longitude": -81.90843,
            "latitude": 31.636895,
            "timezone": "-5"
        },
        {
            "name": "Webster",
            "fips": 13307,
            "longitude": -84.53419,
            "latitude": 32.051618,
            "timezone": "-5"
        },
        {
            "name": "Wheeler",
            "fips": 13309,
            "longitude": -82.69115,
            "latitude": 32.190739,
            "timezone": "-5"
        },
        {
            "name": "White",
            "fips": 13311,
            "longitude": -83.88442,
            "latitude": 34.466226,
            "timezone": "-5"
        },
        {
            "name": "Whitfield",
            "fips": 13313,
            "longitude": -84.988536,
            "latitude": 34.9298,
            "timezone": "-5"
        },
        {
            "name": "Wilcox",
            "fips": 13315,
            "longitude": -83.45722,
            "latitude": 31.933079,
            "timezone": "-5"
        },
        {
            "name": "Wilkes",
            "fips": 13317,
            "longitude": -82.88542,
            "latitude": 33.570317,
            "timezone": "-5"
        },
        {
            "name": "Wilkinson",
            "fips": 13319,
            "longitude": -83.32748,
            "latitude": 32.891499,
            "timezone": "-5"
        },
        {
            "name": "Worth",
            "fips": 13321,
            "longitude": -83.79025,
            "latitude": 31.526584,
            "timezone": "-5"
        }
    ],
    "HI": [
        {
            "name": "Hawaii",
            "fips": 15001,
            "longitude": -155.09842,
            "latitude": 19.713562,
            "timezone": "-10"
        },
        {
            "name": "Honolulu",
            "fips": 15003,
            "longitude": -157.95903,
            "latitude": 21.68762,
            "timezone": "-10"
        },
        {
            "name": "Kalawao",
            "fips": 15005,
            "longitude": -156.9818,
            "latitude": 21.191665,
            "timezone": "-10"
        },
        {
            "name": "Kauai",
            "fips": 15007,
            "longitude": -159.4896,
            "latitude": 22.208401,
            "timezone": "-10"
        },
        {
            "name": "Maui",
            "fips": 15009,
            "longitude": -156.27315,
            "latitude": 20.899634,
            "timezone": "-10"
        }
    ],
    "ID": [
        {
            "name": "Ada",
            "fips": 16001,
            "longitude": -116.36346,
            "latitude": 43.705551,
            "timezone": "-7"
        },
        {
            "name": "Adams",
            "fips": 16003,
            "longitude": -116.55344,
            "latitude": 44.829994,
            "timezone": "-7"
        },
        {
            "name": "Bannock",
            "fips": 16005,
            "longitude": -112.50329,
            "latitude": 42.847727,
            "timezone": "-7"
        },
        {
            "name": "Bear Lake",
            "fips": 16007,
            "longitude": -111.37641,
            "latitude": 42.339083,
            "timezone": "-7"
        },
        {
            "name": "Benewah",
            "fips": 16009,
            "longitude": -116.38764,
            "latitude": 47.10625,
            "timezone": "-8"
        },
        {
            "name": "Bingham",
            "fips": 16011,
            "longitude": -112.68229,
            "latitude": 43.074319,
            "timezone": "-7"
        },